{
    "list": [
        {
            "id": 1,
            "name": "北京工业大学",
            "class": "本科",
            "location": "130108",
            "address": "北京市朝阳区平乐园100号",
            "tel": "010-67391609",
            "website": "http://www.bjut.edu.cn"
        },

        {
            "id": 2,
            "name": "内蒙古大学",
            "class": "本科",
            "location": "150105",
            "address": "内蒙古呼和浩特市赛罕区大学西路235号",
            "tel": "0471-4992253",
            "website": "http://www.imu.edu.cn"
        },

        {
            "id": 3,
            "name": "北京大学",
            "class": "本科",
            "location": "110108",
            "address": "北京市海淀区颐和园路5号",
            "tel": "010-62751407",
            "website": "http://www.pku.edu.cn"
        },
        {
            "id": 4,
            "name": "云南大学",
            "class": "本科",
            "location": "530100",
            "address": "昆明市翠湖北路2号",
            "tel": "0871—65032173",
            "website": "http://www.ynu.edu.cn"
        },
        {
            "id": 5,
            "name": "哈尔滨工业大学",
            "class": "本科",
            "location": "230103",
            "address": "黑龙江省哈尔滨市南岗区西大直街92号",
            "tel": "0451-86414671",
            "website": "http://www.hit.edu.cn"
        },
        {
            "id": 6,
            "name": "西北大学",
            "class": "本科",
            "location": "610100",
            "address": "陕西省西安市太白路229号",
            "tel": "010-67391609",
            "website": "http://www.bjut.edu.cn"
        },
        {
            "id": 7,
            "name": "长安大学",
            "class": "本科",
            "location": "610116",
            "address": "陕西省西安市南二环路中段",
            "tel": "010-67391609",
            "website": "http://www.bjut.edu.cn"
        },
        {
            "id": 8,
            "name": "北京交通大学",
            "class": "本科",
            "location": "110108",
            "address": "北京市海淀区上园村3号",
            "tel": "010-67391609",
            "website": "http://www.bjut.edu.cn"
        },
        {
            "id": 9,
            "name": "北京外国语大学",
            "class": "本科",
            "location": "110108",
            "address": "北京市海淀区西三环北路2号",
            "tel": "010-67391609",
            "website": "http://www.bjut.edu.cn"
        },
        {
            "id": 10,
            "name": "中央音乐学院",
            "class": "本科",
            "location": "110102",
            "address": "中国北京市西城区鲍家街43号",
            "tel": "010-67391609",
            "website": "http://www.bjut.edu.cn"
        },
        {
            "id": 11,
            "name": "北京工业大学",
            "class": "本科",
            "location": "130108",
            "address": "北京市朝阳区平乐园100号",
            "tel": "010-67391609",
            "website": "http://www.bjut.edu.cn"
        },

        {
            "id": 12,
            "name": "内蒙古大学",
            "class": "本科",
            "location": "150105",
            "address": "内蒙古呼和浩特市赛罕区大学西路235号",
            "tel": "（028）66367386、66366373、66366379、66366386",
            "website": "http://www.imu.edu.cn"
        },

        {
            "id": 13,
            "name": "北京大学",
            "class": "本科",
            "location": "110108",
            "address": "北京市海淀区颐和园路5号",
            "tel": "010-62751407",
            "website": "http://www.pku.edu.cn"
        },
        {
            "id": 14,
            "name": "云南大学",
            "class": "本科",
            "location": "530100",
            "address": "昆明市翠湖北路2号",
            "tel": "0871—65032173",
            "website": "http://www.ynu.edu.cn"
        },
        {
            "id": 15,
            "name": "哈尔滨工业大学",
            "class": "本科",
            "location": "230103",
            "address": "黑龙江省哈尔滨市南岗区西大直街92号",
            "tel": "0451-86414671",
            "website": "http://www.hit.edu.cn"
        }

    ]
}
